[
    {
        "id": 1,
        "name": "Max Mustermann",
        "bio": "Kreativer Kopf mit Leidenschaft für Technologie und nachhaltige Lösungen. Immer auf der Suche nach spannenden Projekten und Gleichgesinnten. Meine Vision ist es, durch innovative Technologien unseren ökologischen Fußabdruck zu reduzieren.",
        "skills": [
            "Python",
            "JavaScript",
            "Projektmanagement",
            "Design Thinking",
            "Vue.js",
            "Nachhaltigkeit",
            "Smart City",
            "Content Marketing"
        ],
        "interests": [
            "Technologie",
            "Nachhaltigkeit",
            "DIY-Projekte",
            "Netzwerken",
            "Erneuerbare Energien",
            "Urban Gardening",
            "Sharing Economy"
        ],
        "goals": "Ich möchte nachhaltige Softwarelösungen entwickeln und ein Netzwerk von Gleichgesinnten aufbauen. Langfristig träume ich von einem eigenen Tech-Campus für nachhaltige Innovationen.",
        "education": [
            {
                "period": "2015-2019",
                "title": "B.Sc. Informatik",
                "institution": "TU München"
            },
            {
                "period": "2019-2021",
                "title": "M.Sc. Sustainable Computing",
                "institution": "Universität Berlin"
            },
            {
                "period": "2022",
                "title": "Zertifikat Projektmanagement",
                "institution": "Management Institut Hamburg"
            }
        ],
        "experience": [
            {
                "period": "2020-2022",
                "role": "Junior Developer",
                "company": "TechCorp GmbH"
            },
            {
                "period": "2022-2023",
                "role": "Projektmanager",
                "company": "GreenSolutions AG"
            },
            {
                "period": "2023-heute",
                "role": "Selbstständig",
                "company": "EcoTech Solutions"
            }
        ],
        "ownProjects": [
            {
                "name": "EcoApp",
                "description": "Mobile App zur Müllreduktion und Recycling-Optimierung im Alltag",
                "year": "2022",
                "note": "Allein entwickelt und bereits 5.000 Downloads",
                "coordinates": [48.1351, 11.5820]
            },
            {
                "name": "SolarDIY",
                "description": "Open-Source-Plattform mit Anleitungen für selbstgebaute Solarpanels und kleine Windkraftanlagen",
                "year": "2023",
                "note": "Gemeinschaftsprojekt mit 120+ Mitwirkenden",
                "coordinates": [52.5200, 13.4050]
            },
            {
                "name": "SmartGardenKit",
                "description": "IoT-basiertes Bewässerungssystem für urbane Gärten mit Regenwassernutzung",
                "year": "2023",
                "note": "Kickstarter-finanziert mit 75.000€",
                "coordinates": [50.9375, 6.9603]
            }
        ],
        "contributedProjects": [
            {
                "name": "GreenCity Initiative",
                "role": "Backend-Entwickler",
                "description": "Städtisches Nachhaltigkeitsprojekt zur CO2-Reduktion",
                "year": "2021",
                "coordinates": [48.1372, 11.5750]
            },
            {
                "name": "UrbanFarming Platform",
                "role": "UX-Designer",
                "description": "Plattform zur Vernetzung von Stadtgärten und Lebensmittelverteilung",
                "year": "2022",
                "coordinates": [52.5180, 13.4030]
            }
        ],
        "companies": [
            {
                "name": "EcoTech Solutions",
                "role": "Gründer & Geschäftsführer",
                "year": "2023",
                "description": "Beratung und Softwarelösungen für nachhaltige Technologien im urbanen Raum",
                "coordinates": [48.1390, 11.5890]
            }
        ],
        "services": [
            "Softwareentwicklung mit Fokus auf Nachhaltigkeit",
            "Beratung für nachhaltige Projekte",
            "Workshops zu Green IT und Ressourceneffizienz",
            "IoT-Lösungen für urbane Umweltprojekte"
        ],
        "dreammallGoals": "Ich möchte innerhalb der DreamMall-Community Leute finden, die meine Vision von nachhaltiger Technologie teilen. Gemeinsam können wir innovative Projekte umsetzen, die sowohl wirtschaftlich als auch ökologisch sinnvoll sind. Besonders interessiert bin ich an interdisziplinären Teams, die Technologie, Design und Umweltwissenschaften verbinden.",
        "collaborationPreferences": "Ich arbeite gerne in kleinen, agilen Teams mit flachen Hierarchien. Die Zusammenarbeit mit Designer:innen und Hardware-Expert:innen ist mir besonders wichtig, da meine Stärken im Backend und Projektmanagement liegen. Remote-Arbeit bevorzuge ich, regelmäßige persönliche Treffen für strategische Planungen halte ich jedoch für essenziell.",
        "leadershipPhilosophy": "Führung bedeutet für mich, Verantwortung zu teilen und Talente zu fördern. Weniger Hierarchie, mehr Fokus auf Eigenverantwortung und Kreativität. Ich glaube an transparente Kommunikation und daran, dass die besten Ideen oft aus dem Team kommen, nicht von oben.",
        "educationOpinion": "Das aktuelle Bildungssystem ist zu theorielastig und bereitet nicht ausreichend auf die praktischen Herausforderungen der Berufswelt vor. Wir sollten mehr Wert auf projektbasiertes Lernen, interdisziplinäre Zusammenarbeit und praktische Problemlösung legen. Lebenslanges Lernen und kritisches Denken sind entscheidend für die Zukunft.",
        "valueOrientation": "Ich orientiere mich am Konzept der Nachhaltigkeit in allen Lebensbereichen. Prototypen und schnelles Testen sind mir wichtiger als lange theoretische Planungsphasen. Ein funktionierendes Ergebnis sagt mehr aus als ein perfektes Konzept auf Papier. Offenheit, Kooperation und ökologische Verantwortung prägen mein Handeln.",
        "iconCategories": {
            "home": {
                "address": "Schillerstraße 123, 80336 München",
                "description": "Wohnung in zentraler Lage, oft im Home-Office tätig",
                "coordinates": [48.1351, 11.5820]
            },
            "firma": {
                "name": "EcoTech Solutions",
                "role": "Gründer & Geschäftsführer",
                "year": "2023",
                "description": "Büro im GreenTech Hub München",
                "coordinates": [48.1390, 11.5890]
            },
            "wirkungsbereich": [
                {
                    "name": "München",
                    "coordinates": [48.1351, 11.5820]
                },
                {
                    "name": "Berlin",
                    "coordinates": [52.5200, 13.4050]
                },
                {
                    "name": "Stuttgart",
                    "coordinates": [48.7758, 9.1829]
                }
            ],
            "unternehmen": [
                {
                    "name": "GreenTech Hub",
                    "role": "Mentor",
                    "year": "2022",
                    "description": "Start-up-Inkubator für nachhaltige Technologien",
                    "coordinates": [48.1380, 11.5830]
                },
                {
                    "name": "Urban Farming Collective",
                    "role": "Technologie-Berater",
                    "year": "2023",
                    "description": "Genossenschaft für urbane Landwirtschaft",
                    "coordinates": [48.1320, 11.5790]
                }
            ],
            "projekt": [
                {
                    "name": "SmartCity München",
                    "description": "IoT-Sensoren zur Luftqualitätsmessung",
                    "year": "2022",
                    "role": "Technischer Leiter",
                    "coordinates": [48.1372, 11.5750]
                },
                {
                    "name": "SolarShare",
                    "description": "P2P-Plattform für privaten Solarstromhandel",
                    "year": "2023",
                    "role": "Entwickler",
                    "coordinates": [48.1405, 11.5800]
                },
                {
                    "name": "GreenRoof Initiative",
                    "description": "Förderung von Dachbegrünung in der Innenstadt",
                    "year": "2023",
                    "role": "Berater",
                    "coordinates": [48.1300, 11.5750]
                }
            ],
            "tisch": [
                {
                    "name": "Tech4Good Meetup",
                    "description": "Monatliches Treffen zu Technologie für Nachhaltigkeit",
                    "location": "Impact Hub München",
                    "coordinates": [48.1430, 11.5810]
                },
                {
                    "name": "Green Developers Roundtable",
                    "description": "Diskussionsrunde zu nachhaltiger Softwareentwicklung",
                    "location": "TU München",
                    "coordinates": [48.1500, 11.5680]
                }
            ]
        }
    },
    {
        "id": 2,
        "name": "Test User",
        "bio": "Designerin mit Leidenschaft für UX/UI.",
        "iconCategories": {
            "home": {
                "address": "Berlin, Deutschland",
                "description": "Bevorzugt Remote-Arbeit",
                "coordinates": [52.5200, 13.4050]
            },
            "projekt": [
                {
                    "name": "Barrierefreies Design",
                    "description": "UI Bibliothek für barrierefreie Web-Anwendungen",
                    "year": "2023",
                    "note": "Open Source Projekt",
                    "coordinates": [52.5230, 13.4120]
                }
            ],
            "wirkungsbereich": [
                {"name": "Berlin", "coordinates": [52.5200, 13.4050]},
                {"name": "Remote (Deutschland)", "coordinates": [51.1657, 10.4515]}
            ]
        },
        "skills": ["Figma", "Adobe XD", "CSS"],
        "interests": ["Kreatives Design", "Barrierefreiheit"],
        "goals": "Ich suche Entwickler für gemeinsame Projekte."
    },
    {
        "id": 3,
        "name": "Thomas Schmidt",
        "bio": "Backend-Entwickler und Datenbank-Experte.",
        "iconCategories": {
            "home": {
                "address": "Hamburg, Deutschland",
                "description": "Büro und Home-Office",
                "coordinates": [53.5511, 9.9937]
            },
            "firma": {
                "name": "DataSolutions GmbH",
                "role": "Senior Developer",
                "year": "2021",
                "description": "Datenbankoptimierung und Backend-Lösungen",
                "coordinates": [53.5461, 9.9847]
            }
        },
        "skills": ["Node.js", "MongoDB", "Python"],
        "interests": ["Technologie", "Big Data", "Machine Learning"],
        "goals": "Ich suche nach spannenden Projekten im Bereich KI und Datenanalyse."
    },
    {
        "id": 4,
        "name": "Julia Meier",
        "bio": "Projektmanagerin mit agilen Methoden.",
        "iconCategories": {
            "home": {
                "address": "Frankfurt, Deutschland",
                "description": "Flexibler Arbeitsort",
                "coordinates": [50.1109, 8.6821]
            },
            "projekt": [
                {
                    "name": "Agile Transformation",
                    "description": "Einführung agiler Methoden in traditionellen Unternehmen",
                    "year": "2022",
                    "coordinates": [50.1150, 8.6790]
                },
                {
                    "name": "Nachhaltige Logistik",
                    "description": "Optimierung von Lieferketten für Nachhaltigkeit",
                    "year": "2023",
                    "coordinates": [50.1080, 8.6950]
                }
            ],
            "tisch": [
                {
                    "name": "Agile Coffee",
                    "description": "Wöchentliches Treffen für Scrum Master und Agile Coaches",
                    "location": "Café Agile, Frankfurt",
                    "coordinates": [50.1130, 8.6850]
                }
            ]
        },
        "skills": ["Scrum", "Kanban", "Teamleitung"],
        "interests": ["Nachhaltigkeit", "Agile Entwicklung"],
        "goals": "Ich möchte nachhaltige Projekte mit agilen Teams umsetzen."
    },
    {
        "id": 5,
        "name": "Markus Weber",
        "bio": "Hardware-Entwickler mit Fokus auf IoT.",
        "iconCategories": {
            "home": {
                "address": "Dresden, Deutschland",
                "description": "Werkstatt im Haus",
                "coordinates": [51.0504, 13.7373]
            },
            "firma": {
                "name": "IoT Innovations",
                "role": "Gründer & Entwickler",
                "year": "2020",
                "description": "IoT-Lösungen für Smart Homes und Industrie",
                "coordinates": [51.0550, 13.7400]
            },
            "projekt": [
                {
                    "name": "SmartHouse",
                    "description": "Komplettausstattung für intelligente Häuser",
                    "year": "2021",
                    "coordinates": [51.0520, 13.7350]
                },
                {
                    "name": "SensorGrid",
                    "description": "Vernetztes Sensornetzwerk für Städte",
                    "year": "2022",
                    "coordinates": [51.0490, 13.7420]
                }
            ],
            "wirkungsbereich": [
                {"name": "Dresden", "coordinates": [51.0504, 13.7373]},
                {"name": "Leipzig", "coordinates": [51.3396, 12.3713]},
                {"name": "Berlin", "coordinates": [52.5200, 13.4050]}
            ]
        },
        "skills": ["Arduino", "Raspberry Pi", "Elektronik"],
        "interests": ["Technologie", "DIY", "Smart Home"],
        "goals": "Ich suche nach Softwareentwicklern für IoT-Projekte."
    }
]
